{"type":"FeatureCollection","features":[{"type":"Feature","properties":{"Name":"California State University - Channel Islands","Zip":"93012","Lat":"34.196026","Long":"-118.992531"},"geometry":{"type":"Point","coordinates":[-118.992531,34.196026]}},{"type":"Feature","properties":{"Name":"Oberlin College","Zip":"44074","Lat":"41.289495","Long":"-82.231223"},"geometry":{"type":"Point","coordinates":[-82.231223,41.289495]}},{"type":"Feature","properties":{"Name":"Clayton State University","Zip":"30260","Lat":"33.584687","Long":"-84.327348"},"geometry":{"type":"Point","coordinates":[-84.327348,33.584687]}},{"type":"Feature","properties":{"Name":"Northeastern University","Zip":"02115","Lat":"42.337105","Long":"-71.105696"},"geometry":{"type":"Point","coordinates":[-71.105696,42.337105]}},{"type":"Feature","properties":{"Name":"Merrimack College","Zip":"01845","Lat":"42.673909","Long":"-71.091334"},"geometry":{"type":"Point","coordinates":[-71.091334,42.673909]}},{"type":"Feature","properties":{"Name":"Illinois State University","Zip":"61790","Lat":"40.5126","Long":"-88.9932"},"geometry":{"type":"Point","coordinates":[-88.9932,40.5126]}},{"type":"Feature","properties":{"Name":"Salisbury University","Zip":"21801","Lat":"38.380073","Long":"-75.63704"},"geometry":{"type":"Point","coordinates":[-75.63704,38.380073]}},{"type":"Feature","properties":{"Name":"University of Washington Tacoma","Zip":"98402","Lat":"47.250158","Long":"-122.43903"},"geometry":{"type":"Point","coordinates":[-122.43903,47.250158]}},{"type":"Feature","properties":{"Name":"University of West Georgia","Zip":"30118","Lat":"33.572388","Long":"-85.10362"},"geometry":{"type":"Point","coordinates":[-85.10362,33.572388]}},{"type":"Feature","properties":{"Name":"University of Wisconsin - Superior","Zip":"54880","Lat":"46.590874","Long":"-92.12831"},"geometry":{"type":"Point","coordinates":[-92.12831,46.590874]}},{"type":"Feature","properties":{"Name":"Indiana University Purdue University Columbus","Zip":"47203","Lat":"39.230403","Long":"-85.83216"},"geometry":{"type":"Point","coordinates":[-85.83216,39.230403]}},{"type":"Feature","properties":{"Name":"Washington State University Tri-Cities","Zip":"99354","Lat":"46.332253","Long":"-119.299106"},"geometry":{"type":"Point","coordinates":[-119.299106,46.332253]}},{"type":"Feature","properties":{"Name":"University of Maryland Eastern Shore","Zip":"21853","Lat":"38.20354","Long":"-75.720887"},"geometry":{"type":"Point","coordinates":[-75.720887,38.20354]}},{"type":"Feature","properties":{"Name":"Coppin State University","Zip":"21216","Lat":"39.310595","Long":"-76.671717"},"geometry":{"type":"Point","coordinates":[-76.671717,39.310595]}},{"type":"Feature","properties":{"Name":"Athens State University","Zip":"35611","Lat":"34.773833","Long":"-87.084145"},"geometry":{"type":"Point","coordinates":[-87.084145,34.773833]}},{"type":"Feature","properties":{"Name":"Case Western Reserve University","Zip":"44106","Lat":"41.505341","Long":"-81.605432"},"geometry":{"type":"Point","coordinates":[-81.605432,41.505341]}},{"type":"Feature","properties":{"Name":"Gordon State College","Zip":"30204","Lat":"33.056208","Long":"-84.121725"},"geometry":{"type":"Point","coordinates":[-84.121725,33.056208]}},{"type":"Feature","properties":{"Name":"Indiana University - East","Zip":"47374","Lat":"39.831084","Long":"-84.889711"},"geometry":{"type":"Point","coordinates":[-84.889711,39.831084]}},{"type":"Feature","properties":{"Name":"Indiana University - Kokomo","Zip":"46902","Lat":"40.437275","Long":"-86.094553"},"geometry":{"type":"Point","coordinates":[-86.094553,40.437275]}},{"type":"Feature","properties":{"Name":"Indiana University - Northwest","Zip":"46408","Lat":"41.545938","Long":"-87.368484"},"geometry":{"type":"Point","coordinates":[-87.368484,41.545938]}},{"type":"Feature","properties":{"Name":"Indiana University - South Bend","Zip":"46615","Lat":"41.673953","Long":"-86.21171"},"geometry":{"type":"Point","coordinates":[-86.21171,41.673953]}},{"type":"Feature","properties":{"Name":"Indiana University - Southeast","Zip":"47150","Lat":"38.283579","Long":"-85.84759"},"geometry":{"type":"Point","coordinates":[-85.84759,38.283579]}},{"type":"Feature","properties":{"Name":"Metropolitan State University of Denver","Zip":"80217","Lat":"39.7432","Long":"-105.0063"},"geometry":{"type":"Point","coordinates":[-105.0063,39.7432]}},{"type":"Feature","properties":{"Name":"Texas A&M University - Central Texas","Zip":"76549","Lat":"31.017077","Long":"-97.833092"},"geometry":{"type":"Point","coordinates":[-97.833092,31.017077]}},{"type":"Feature","properties":{"Name":"University of Hawaii at Hilo","Zip":"96720","Lat":"19.65981","Long":"-155.232473"},"geometry":{"type":"Point","coordinates":[-155.232473,19.65981]}},{"type":"Feature","properties":{"Name":"University of Hawaii Maui College","Zip":"96732","Lat":"20.883783","Long":"-156.462641"},"geometry":{"type":"Point","coordinates":[-156.462641,20.883783]}},{"type":"Feature","properties":{"Name":"University of Maryland Baltimore","Zip":"21201","Lat":"39.294823","Long":"-76.622224"},"geometry":{"type":"Point","coordinates":[-76.622224,39.294823]}},{"type":"Feature","properties":{"Name":"University of South Carolina - Upstate","Zip":"29303","Lat":"34.99496","Long":"-81.963863"},"geometry":{"type":"Point","coordinates":[-81.963863,34.99496]}},{"type":"Feature","properties":{"Name":"Whitman College","Zip":"99362","Lat":"46.101064","Long":"-118.313624"},"geometry":{"type":"Point","coordinates":[-118.313624,46.101064]}},{"type":"Feature","properties":{"Name":"DePaul University","Zip":"60604","Lat":"41.878096","Long":"-87.62846"},"geometry":{"type":"Point","coordinates":[-87.62846,41.878096]}},{"type":"Feature","properties":{"Name":"University of San Diego","Zip":"92110","Lat":"32.765244","Long":"-117.200391"},"geometry":{"type":"Point","coordinates":[-117.200391,32.765244]}},{"type":"Feature","properties":{"Name":"North Carolina State University at Raleigh","Zip":"27695","Lat":"35.7847","Long":"-78.6821"},"geometry":{"type":"Point","coordinates":[-78.6821,35.7847]}},{"type":"Feature","properties":{"Name":"University of California - Los Angeles","Zip":"90095","Lat":"34.071225","Long":"-118.443373"},"geometry":{"type":"Point","coordinates":[-118.443373,34.071225]}},{"type":"Feature","properties":{"Name":"Arizona State University - Tempe","Zip":"85287","Lat":"33.4242","Long":"-111.9281"},"geometry":{"type":"Point","coordinates":[-111.9281,33.4242]}},{"type":"Feature","properties":{"Name":"California State University - Chico","Zip":"95929","Lat":"39.7288","Long":"-121.8476"},"geometry":{"type":"Point","coordinates":[-121.8476,39.7288]}},{"type":"Feature","properties":{"Name":"Indiana University - Perdue University - Indianapolis","Zip":"46202","Lat":"39.784102","Long":"-86.163477"},"geometry":{"type":"Point","coordinates":[-86.163477,39.784102]}},{"type":"Feature","properties":{"Name":"Northern Kentucky University","Zip":"41099","Lat":"39.035893","Long":"-84.468189"},"geometry":{"type":"Point","coordinates":[-84.468189,39.035893]}},{"type":"Feature","properties":{"Name":"University of Wisconsin - Parkside","Zip":"53144","Lat":"42.622122","Long":"-87.920178"},"geometry":{"type":"Point","coordinates":[-87.920178,42.622122]}},{"type":"Feature","properties":{"Name":"Western Kentucky University","Zip":"42101","Lat":"37.058097","Long":"-86.463061"},"geometry":{"type":"Point","coordinates":[-86.463061,37.058097]}},{"type":"Feature","properties":{"Name":"Winona State University","Zip":"55987","Lat":"43.994246","Long":"-91.625441"},"geometry":{"type":"Point","coordinates":[-91.625441,43.994246]}},{"type":"Feature","properties":{"Name":"Bowling Green State University - Main Campus","Zip":"43403","Lat":"41.376979","Long":"-83.637118"},"geometry":{"type":"Point","coordinates":[-83.637118,41.376979]}},{"type":"Feature","properties":{"Name":"Duquesne University","Zip":"15282","Lat":"40.4368","Long":"-79.9893"},"geometry":{"type":"Point","coordinates":[-79.9893,40.4368]}},{"type":"Feature","properties":{"Name":"Towson University","Zip":"21252","Lat":"39.39379","Long":"-76.607819"},"geometry":{"type":"Point","coordinates":[-76.607819,39.39379]}},{"type":"Feature","properties":{"Name":"University of Massachusetts Medical School Worcester","Zip":"01655","Lat":"42.2786","Long":"-71.7633"},"geometry":{"type":"Point","coordinates":[-71.7633,42.2786]}},{"type":"Feature","properties":{"Name":"University of North Carolina at Greensboro","Zip":"27402","Lat":"36.0689","Long":"-79.8102"},"geometry":{"type":"Point","coordinates":[-79.8102,36.0689]}},{"type":"Feature","properties":{"Name":"Weber State University","Zip":"84408","Lat":"41.1916","Long":"-111.9441"},"geometry":{"type":"Point","coordinates":[-111.9441,41.1916]}},{"type":"Feature","properties":{"Name":"Western Carolina University","Zip":"28723","Lat":"35.156866","Long":"-83.140703"},"geometry":{"type":"Point","coordinates":[-83.140703,35.156866]}},{"type":"Feature","properties":{"Name":"Central Connecticut State University","Zip":"06050","Lat":"41.6929","Long":"-72.7648"},"geometry":{"type":"Point","coordinates":[-72.7648,41.6929]}},{"type":"Feature","properties":{"Name":"Indiana University - Bloomington","Zip":"47405","Lat":"39.168209","Long":"-86.518614"},"geometry":{"type":"Point","coordinates":[-86.518614,39.168209]}},{"type":"Feature","properties":{"Name":"Pennsylvania State University - Penn State Schuylkill","Zip":"17972","Lat":"40.592165","Long":"-76.20579"},"geometry":{"type":"Point","coordinates":[-76.20579,40.592165]}},{"type":"Feature","properties":{"Name":"University of Minnesota - Crookston","Zip":"56716","Lat":"47.743247","Long":"-96.555408"},"geometry":{"type":"Point","coordinates":[-96.555408,47.743247]}},{"type":"Feature","properties":{"Name":"University of Minnesota - Duluth","Zip":"55812","Lat":"46.808688","Long":"-92.070727"},"geometry":{"type":"Point","coordinates":[-92.070727,46.808688]}}]}